[{
	"the_geom": {
		"type": "Point",
		"coordinates": [-105.08013700028738, 39.771095999799854]
	},
	"store_type": "Supermarket",
	"store_name": "Safeway",
	"address_id": "0.0",
	"address1": "3900 Wadsworth Blvd",
	"city": "Wheat Ridge",
	"state": "CO",
	"zip": "80033",
	"phone": "(303) 456-2670",
	"sic": "541105",
	"naics_ext": "445110",
	"sales_vol": "33543000",
	"number_emp": "130.0",
	"empsiz": "100 to 249",
	"sqft": "40,000+",
	"source": "InfoGroup2014",
	"point_x": "-105.080137",
	"point_y": "39.771096",
	"nbhd_name": "Outside Denver",
	"council_di": "Outside Denver"
}, {
	"the_geom": {
		"type": "Point",
		"coordinates": [-105.03477300136922, 39.61052600005712]
	},
	"store_type": "Supermarket",
	"store_name": "Walmart",
	"address_id": "0.0",
	"address1": "3615 W Bowles Ave",
	"city": "Littleton",
	"state": "CO",
	"zip": "80123",
	"phone": "(303) 218-4873",
	"sic": "541105",
	"naics_ext": "445110",
	"sales_vol": "18061000",
	"number_emp": "70.0",
	"empsiz": "50 to 99",
	"sqft": "2,500 - 9,999",
	"source": "InfoGroup2014",
	"point_x": "-105.034773",
	"point_y": "39.610526",
	"nbhd_name": "Outside Denver",
	"council_di": "Outside Denver"
}, {
	"the_geom": {
		"type": "Point",
		"coordinates": [-104.9507369998613, 39.717035000264275]
	},
	"store_type": "Supermarket",
	"store_name": "Safeway",
	"address_id": "0.0",
	"address1": "3110 E 1st Ave",
	"city": "Denver",
	"state": "CO",
	"zip": "80206",
	"phone": "(303) 355-5486",
	"sic": "541105",
	"naics_ext": "445110",
	"sales_vol": "25802000",
	"number_emp": "100.0",
	"empsiz": "100 to 249",
	"sqft": "40,000+",
	"source": "InfoGroup2014",
	"point_x": "-104.950737",
	"point_y": "39.717035",
	"nbhd_name": "Cherry Creek",
	"council_di": "Council District 10"
}, {
	"the_geom": {
		"type": "Point",
		"coordinates": [-104.91432700049495, 39.65304299962514]
	},
	"store_type": "Supermarket",
	"store_name": "King Soopers",
	"address_id": "0.0",
	"address1": "6470 E Hampden Ave",
	"city": "Denver",
	"state": "CO",
	"zip": "80222",
	"phone": "(303) 758-1210",
	"sic": "541105",
	"naics_ext": "445110",
	"sales_vol": "57539000",
	"number_emp": "223.0",
	"empsiz": "100 to 249",
	"sqft": "40,000+",
	"source": "InfoGroup2014",
	"point_x": "-104.914327",
	"point_y": "39.653043",
	"nbhd_name": "Hampden South",
	"council_di": "Council District 4"
}, {
	"the_geom": {
		"type": "Point",
		"coordinates": [-104.92110600013956, 39.607908999543156]
	},
	"store_type": "Supermarket",
	"store_name": "King Soopers",
	"address_id": "0.0",
	"address1": "6000 S Holly St",
	"city": "Greenwood Vlg",
	"state": "CO",
	"zip": "80111",
	"phone": "(720) 488-3405",
	"sic": "541105",
	"naics_ext": "445110",
	"sales_vol": "42574000",
	"number_emp": "165.0",
	"empsiz": "100 to 249",
	"sqft": "40,000+",
	"source": "InfoGroup2014",
	"point_x": "-104.921106",
	"point_y": "39.607909",
	"nbhd_name": "Outside Denver",
	"council_di": "Outside Denver"
}, {
	"the_geom": {
		"type": "Point",
		"coordinates": [-105.07201099974577, 39.5935260002546]
	},
	"store_type": "Supermarket",
	"store_name": "King Soopers",
	"address_id": "0.0",
	"address1": "6760 S Pierce St",
	"city": "Littleton",
	"state": "CO",
	"zip": "80128",
	"phone": "(303) 979-2280",
	"sic": "541105",
	"naics_ext": "445110",
	"sales_vol": "42574000",
	"number_emp": "165.0",
	"empsiz": "100 to 249",
	"sqft": "40,000+",
	"source": "InfoGroup2014",
	"point_x": "-105.072011",
	"point_y": "39.593526",
	"nbhd_name": "Outside Denver",
	"council_di": "Outside Denver"
}, {
	"the_geom": {
		"type": "Point",
		"coordinates": [-104.98765200006363, 39.710492000477586]
	},
	"store_type": "Supermarket",
	"store_name": "Albertsons",
	"address_id": "0.0",
	"address1": "323 S Broadway",
	"city": "Denver",
	"state": "CO",
	"zip": "80209",
	"phone": "(303) 744-8660",
	"sic": "541105",
	"naics_ext": "445110",
	"sales_vol": "28382000",
	"number_emp": "110.0",
	"empsiz": "100 to 249",
	"sqft": "40,000+",
	"source": "InfoGroup2014",
	"point_x": "-104.987652",
	"point_y": "39.710492",
	"nbhd_name": "Baker",
	"council_di": "Council District 7"
}, {
	"the_geom": {
		"type": "Point",
		"coordinates": [-105.09149999959686, 39.622935000169264]
	},
	"store_type": "Supermarket",
	"store_name": "Whole Foods",
	"address_id": "0.0",
	"address1": "5155 S Wadsworth Blvd",
	"city": "Littleton",
	"state": "CO",
	"zip": "80123",
	"phone": "(303) 586-5220",
	"sic": "541105",
	"naics_ext": "445110",
	"sales_vol": "38187000",
	"number_emp": "148.0",
	"empsiz": "100 to 249",
	"sqft": "40,000+",
	"source": "InfoGroup2014",
	"point_x": "-105.0915",
	"point_y": "39.622935",
	"nbhd_name": "Outside Denver",
	"council_di": "Outside Denver"
}, {
	"the_geom": {
		"type": "Point",
		"coordinates": [-104.8472659996986, 39.726397000299244]
	},
	"store_type": "Supermarket",
	"store_name": "King Soopers",
	"address_id": "0.0",
	"address1": "655 Peoria St",
	"city": "Aurora",
	"state": "CO",
	"zip": "80011",
	"phone": "(303) 364-9218",
	"sic": "541105",
	"naics_ext": "445110",
	"sales_vol": "36123000",
	"number_emp": "140.0",
	"empsiz": "100 to 249",
	"sqft": "40,000+",
	"source": "InfoGroup2014",
	"point_x": "-104.847266",
	"point_y": "39.726397",
	"nbhd_name": "Outside Denver",
	"council_di": "Outside Denver"
}, {
	"the_geom": {
		"type": "Point",
		"coordinates": [-105.054839000318, 39.71260500015928]
	},
	"store_type": "Supermarket",
	"store_name": "Viet Hoa Supermarket",
	"address_id": "0.0",
	"address1": "225 S Sheridan Blvd # B",
	"city": "Lakewood",
	"state": "CO",
	"zip": "80226",
	"phone": "(303) 975-9900",
	"sic": "541105",
	"naics_ext": "445110",
	"sales_vol": "4386000",
	"number_emp": "17.0",
	"empsiz": "10 to 19",
	"sqft": "2,500 - 9,999",
	"source": "InfoGroup2014",
	"point_x": "-105.054839",
	"point_y": "39.712605",
	"nbhd_name": "Outside Denver",
	"council_di": "Outside Denver"
}, {
	"the_geom": {
		"type": "Point",
		"coordinates": [-104.97753600128749, 39.74896600034754]
	},
	"store_type": "Supermarket",
	"store_name": "Safeway",
	"address_id": "0.0",
	"address1": "757 E 20th Ave",
	"city": "Denver",
	"state": "CO",
	"zip": "80205",
	"phone": "(303) 861-8169",
	"sic": "541105",
	"naics_ext": "445110",
	"sales_vol": "14191000",
	"number_emp": "55.0",
	"empsiz": "50 to 99",
	"sqft": "2,500 - 9,999",
	"source": "InfoGroup2014",
	"point_x": "-104.977536",
	"point_y": "39.748966",
	"nbhd_name": "Five Points",
	"council_di": "Council District 9"
}, {
	"the_geom": {
		"type": "Point",
		"coordinates": [-105.05194699980427, 39.69046899968515]
	},
	"store_type": "Supermarket",
	"store_name": "King Soopers",
	"address_id": "0.0",
	"address1": "5125 W Florida Ave",
	"city": "Denver",
	"state": "CO",
	"zip": "80219",
	"phone": "(303) 934-3147",
	"sic": "541105",
	"naics_ext": "445110",
	"sales_vol": "36897000",
	"number_emp": "143.0",
	"empsiz": "100 to 249",
	"sqft": "40,000+",
	"source": "InfoGroup2014",
	"point_x": "-105.051947",
	"point_y": "39.690469",
	"nbhd_name": "Mar Lee",
	"council_di": "Council District 3"
}, {
	"the_geom": {
		"type": "Point",
		"coordinates": [-104.90017800005705, 39.65496399960881]
	},
	"store_type": "Supermarket",
	"store_name": "Target",
	"address_id": "0.0",
	"address1": "7777 E Hampden Ave",
	"city": "Denver",
	"state": "CO",
	"zip": "80231",
	"phone": "(303) 481-2822",
	"sic": "531102",
	"naics_ext": "452111",
	"sales_vol": "33025000",
	"number_emp": "150.0",
	"empsiz": "100 to 249",
	"sqft": "40,000+",
	"source": "InfoGroup2014",
	"point_x": "-104.900178",
	"point_y": "39.654964",
	"nbhd_name": "Hampden",
	"council_di": "Council District 4"
}, {
	"the_geom": {
		"type": "Point",
		"coordinates": [-105.02437899958244, 39.7554349998652]
	},
	"store_type": "Supermarket",
	"store_name": "Safeway",
	"address_id": "0.0",
	"address1": "2660 Federal Blvd",
	"city": "Denver",
	"state": "CO",
	"zip": "80211",
	"phone": "(303) 477-5091",
	"sic": "541105",
	"naics_ext": "445110",
	"sales_vol": "18061000",
	"number_emp": "70.0",
	"empsiz": "50 to 99",
	"sqft": "2,500 - 9,999",
	"source": "InfoGroup2014",
	"point_x": "-105.024379",
	"point_y": "39.755435",
	"nbhd_name": "Jefferson Park",
	"council_di": "Council District 1"
}, {
	"the_geom": {
		"type": "Point",
		"coordinates": [-104.9595629999477, 39.65353400041016]
	},
	"store_type": "Supermarket",
	"store_name": "King Soopers",
	"address_id": "0.0",
	"address1": "3495 S University Blvd",
	"city": "Englewood",
	"state": "CO",
	"zip": "80113",
	"phone": "(303) 806-2780",
	"sic": "541105",
	"naics_ext": "445110",
	"sales_vol": "774000",
	"number_emp": "3.0",
	"empsiz": "1 to 4",
	"sqft": "0 - 2,499",
	"source": "InfoGroup2014",
	"point_x": "-104.959563",
	"point_y": "39.653534",
	"nbhd_name": "Outside Denver",
	"council_di": "Outside Denver"
}, {
	"the_geom": {
		"type": "Point",
		"coordinates": [-105.08134899969356, 39.7080210004944]
	},
	"store_type": "Supermarket",
	"store_name": "Whole Foods",
	"address_id": "0.0",
	"address1": "444 S Wadsworth Blvd",
	"city": "Lakewood",
	"state": "CO",
	"zip": "80226",
	"phone": "(303) 935-5000",
	"sic": "541105",
	"naics_ext": "445110",
	"sales_vol": "51604000",
	"number_emp": "200.0",
	"empsiz": "100 to 249",
	"sqft": "40,000+",
	"source": "InfoGroup2014",
	"point_x": "-105.081349",
	"point_y": "39.708021",
	"nbhd_name": "Outside Denver",
	"council_di": "Outside Denver"
}, {
	"the_geom": {
		"type": "Point",
		"coordinates": [-105.02153700025053, 39.679616000229714]
	},
	"store_type": "Supermarket",
	"store_name": "King Soopers",
	"address_id": "0.0",
	"address1": "2727 W Evans Ave",
	"city": "Denver",
	"state": "CO",
	"zip": "80219",
	"phone": "(303) 936-2375",
	"sic": "541105",
	"naics_ext": "445110",
	"sales_vol": "34833000",
	"number_emp": "135.0",
	"empsiz": "100 to 249",
	"sqft": "40,000+",
	"source": "InfoGroup2014",
	"point_x": "-105.021537",
	"point_y": "39.679616",
	"nbhd_name": "College View - South Platte",
	"council_di": "Council District 7"
}, {
	"the_geom": {
		"type": "Point",
		"coordinates": [-105.08322099949908, 39.68175800001683]
	},
	"store_type": "Supermarket",
	"store_name": "King Soopers",
	"address_id": "0.0",
	"address1": "1927 S Wadsworth Blvd # 1",
	"city": "Lakewood",
	"state": "CO",
	"zip": "80227",
	"phone": "(303) 985-8795",
	"sic": "541105",
	"naics_ext": "445110",
	"sales_vol": "51604000",
	"number_emp": "200.0",
	"empsiz": "100 to 249",
	"sqft": "40,000+",
	"source": "InfoGroup2014",
	"point_x": "-105.083221",
	"point_y": "39.681758",
	"nbhd_name": "Outside Denver",
	"council_di": "Outside Denver"
}, {
	"the_geom": {
		"type": "Point",
		"coordinates": [-104.98241600002848, 39.726632000153586]
	},
	"store_type": "Supermarket",
	"store_name": "Trader Joe's",
	"address_id": "0.0",
	"address1": "661 Logan Street",
	"city": "Denver",
	"state": "CO",
	"zip": "80203",
	"phone": "(303) 318-7112",
	"sales_vol": "0.0",
	"number_emp": "0.0",
	"source": "OED",
	"point_x": "-104.982416",
	"point_y": "39.726632",
	"nbhd_name": "Speer",
	"council_di": "Council District 10"
}, {
	"the_geom": {
		"type": "Point",
		"coordinates": [-104.8443390000577, 39.659473000001015]
	},
	"store_type": "Supermarket",
	"store_name": "King Soopers",
	"address_id": "0.0",
	"address1": "3190 S Parker Rd",
	"city": "Aurora",
	"state": "CO",
	"zip": "80014",
	"phone": "(303) 750-2450",
	"sic": "541105",
	"naics_ext": "445110",
	"sales_vol": "34833000",
	"number_emp": "135.0",
	"empsiz": "100 to 249",
	"sqft": "40,000+",
	"source": "InfoGroup2014",
	"point_x": "-104.844339",
	"point_y": "39.659473",
	"nbhd_name": "Outside Denver",
	"council_di": "Outside Denver"
}, {
	"the_geom": {
		"type": "Point",
		"coordinates": [-104.95678299984121, 39.718798999677176]
	},
	"store_type": "Supermarket",
	"store_name": "Whole Foods",
	"address_id": "0.0",
	"address1": "2375 E 1st Ave # West",
	"city": "Denver",
	"state": "CO",
	"zip": "80206",
	"phone": "(720) 941-4100",
	"sic": "541105",
	"naics_ext": "445110",
	"sales_vol": "77407000",
	"number_emp": "300.0",
	"empsiz": "250 to 499",
	"sqft": "40,000+",
	"source": "InfoGroup2014",
	"point_x": "-104.956783",
	"point_y": "39.718799",
	"nbhd_name": "Cherry Creek",
	"council_di": "Council District 10"
}, {
	"the_geom": {
		"type": "Point",
		"coordinates": [-105.03693500022905, 39.776059999846154]
	},
	"store_type": "Supermarket",
	"store_name": "Safeway",
	"address_id": "0.0",
	"address1": "3800 W 44th Ave",
	"city": "Denver",
	"state": "CO",
	"zip": "80211",
	"phone": "(303) 458-8418",
	"sic": "541105",
	"naics_ext": "445110",
	"sales_vol": "28382000",
	"number_emp": "110.0",
	"empsiz": "100 to 249",
	"sqft": "40,000+",
	"source": "InfoGroup2014",
	"point_x": "-105.036935",
	"point_y": "39.77606",
	"nbhd_name": "Berkeley",
	"council_di": "Council District 1"
}, {
	"the_geom": {
		"type": "Point",
		"coordinates": [-105.05324599952672, 39.74560200011791]
	},
	"store_type": "Supermarket",
	"store_name": "King Soopers",
	"address_id": "0.0",
	"address1": "1725 Sheridan Blvd # 1",
	"city": "Edgewater",
	"state": "CO",
	"zip": "80214",
	"phone": "(303) 425-7356",
	"sic": "541105",
	"naics_ext": "445110",
	"sales_vol": "36123000",
	"number_emp": "140.0",
	"empsiz": "100 to 249",
	"sqft": "40,000+",
	"source": "InfoGroup2014",
	"point_x": "-105.053246",
	"point_y": "39.745602",
	"nbhd_name": "Outside Denver",
	"council_di": "Outside Denver"
}, {
	"the_geom": {
		"type": "Point",
		"coordinates": [-104.97251300002671, 39.67762199998066]
	},
	"store_type": "Supermarket",
	"store_name": "Safeway",
	"address_id": "0.0",
	"address1": "2150 S Downing St",
	"city": "Denver",
	"state": "CO",
	"zip": "80210",
	"phone": "(303) 722-6117",
	"sic": "541105",
	"naics_ext": "445110",
	"sales_vol": "34833000",
	"number_emp": "135.0",
	"empsiz": "100 to 249",
	"sqft": "40,000+",
	"source": "InfoGroup2014",
	"point_x": "-104.972513",
	"point_y": "39.677622",
	"nbhd_name": "University",
	"council_di": "Council District 6"
}, {
	"the_geom": {
		"type": "Point",
		"coordinates": [-105.10747099965852, 39.62364499975047]
	},
	"store_type": "Supermarket",
	"store_name": "King Soopers",
	"address_id": "0.0",
	"address1": "9800 W Belleview Ave",
	"city": "Littleton",
	"state": "CO",
	"zip": "80123",
	"phone": "(303) 978-9618",
	"sic": "541105",
	"naics_ext": "445110",
	"sales_vol": "61925000",
	"number_emp": "240.0",
	"empsiz": "100 to 249",
	"sqft": "40,000+",
	"source": "InfoGroup2014",
	"point_x": "-105.107471",
	"point_y": "39.623645",
	"nbhd_name": "Outside Denver",
	"council_di": "Outside Denver"
}, {
	"the_geom": {
		"type": "Point",
		"coordinates": [-105.05206100021871, 39.811278999882745]
	},
	"store_type": "Supermarket",
	"store_name": "King Soopers",
	"address_id": "0.0",
	"address1": "6350 Sheridan Blvd # 1",
	"city": "Arvada",
	"state": "CO",
	"zip": "80003",
	"phone": "(303) 429-1597",
	"sic": "541105",
	"naics_ext": "445110",
	"sales_vol": "38187000",
	"number_emp": "148.0",
	"empsiz": "100 to 249",
	"sqft": "40,000+",
	"source": "InfoGroup2014",
	"point_x": "-105.052061",
	"point_y": "39.811279",
	"nbhd_name": "Outside Denver",
	"council_di": "Outside Denver"
}, {
	"the_geom": {
		"type": "Point",
		"coordinates": [-104.9127149996346, 39.700541000301314]
	},
	"store_type": "Supermarket",
	"store_name": "King Soopers",
	"address_id": "0.0",
	"address1": "890 S Monaco Pkwy",
	"city": "Denver",
	"state": "CO",
	"zip": "80224",
	"phone": "(303) 333-1535",
	"sic": "541105",
	"naics_ext": "445110",
	"sales_vol": "42574000",
	"number_emp": "165.0",
	"empsiz": "100 to 249",
	"sqft": "40,000+",
	"source": "InfoGroup2014",
	"point_x": "-104.912715",
	"point_y": "39.700541",
	"nbhd_name": "Washington Virginia Vale",
	"council_di": "Council District 5"
}, {
	"the_geom": {
		"type": "Point",
		"coordinates": [-104.88409399958465, 39.626092999649984]
	},
	"store_type": "Supermarket",
	"store_name": "King Soopers",
	"address_id": "0.0",
	"address1": "4910 S Yosemite St # B2",
	"city": "Greenwood Vlg",
	"state": "CO",
	"zip": "80111",
	"phone": "(303) 793-9080",
	"sic": "541105",
	"naics_ext": "445110",
	"sales_vol": "43864000",
	"number_emp": "170.0",
	"empsiz": "100 to 249",
	"sqft": "40,000+",
	"source": "InfoGroup2014",
	"point_x": "-104.884094",
	"point_y": "39.626093",
	"nbhd_name": "Outside Denver",
	"council_di": "Outside Denver"
}, {
	"the_geom": {
		"type": "Point",
		"coordinates": [-104.9132909997286, 39.66628299975839]
	},
	"store_type": "Supermarket",
	"store_name": "Safeway",
	"address_id": "0.0",
	"address1": "6440 E Yale Ave",
	"city": "Denver",
	"state": "CO",
	"zip": "80222",
	"phone": "(303) 691-8870",
	"sic": "541105",
	"naics_ext": "445110",
	"sales_vol": "25802000",
	"number_emp": "100.0",
	"empsiz": "100 to 249",
	"sqft": "40,000+",
	"source": "InfoGroup2014",
	"point_x": "-104.913291",
	"point_y": "39.666283",
	"nbhd_name": "Hampden",
	"council_di": "Council District 4"
}, {
	"the_geom": {
		"type": "Point",
		"coordinates": [-104.93010899986945, 39.80860800017251]
	},
	"store_type": "Supermarket",
	"store_name": "King Soopers",
	"address_id": "0.0",
	"address1": "4850 E 62nd Ave",
	"city": "Commerce City",
	"state": "CO",
	"zip": "80022",
	"phone": "(303) 287-3419",
	"sic": "541105",
	"naics_ext": "445110",
	"sales_vol": "2064000",
	"number_emp": "8.0",
	"empsiz": "5 to 9",
	"sqft": "2,500 - 9,999",
	"source": "InfoGroup2014",
	"point_x": "-104.930109",
	"point_y": "39.808608",
	"nbhd_name": "Outside Denver",
	"council_di": "Outside Denver"
}, {
	"the_geom": {
		"type": "Point",
		"coordinates": [-104.98442200032116, 39.65180000010628]
	},
	"store_type": "Supermarket",
	"store_name": "Safeway",
	"address_id": "0.0",
	"address1": "201 E Jefferson Ave",
	"city": "Englewood",
	"state": "CO",
	"zip": "80113",
	"phone": "(303) 781-0463",
	"sic": "541105",
	"naics_ext": "445110",
	"sales_vol": "24512000",
	"number_emp": "95.0",
	"empsiz": "50 to 99",
	"sqft": "2,500 - 9,999",
	"source": "InfoGroup2014",
	"point_x": "-104.984422",
	"point_y": "39.6518",
	"nbhd_name": "Outside Denver",
	"council_di": "Outside Denver"
}, {
	"the_geom": {
		"type": "Point",
		"coordinates": [-104.93949499999174, 39.70090599962822]
	},
	"store_type": "Supermarket",
	"store_name": "Whole Foods",
	"address_id": "0.0",
	"address1": "870 S Colorado Blvd # A",
	"city": "Denver",
	"state": "CO",
	"zip": "80246",
	"phone": "(303) 691-0101",
	"sic": "541105",
	"naics_ext": "445110",
	"sales_vol": "23222000",
	"number_emp": "90.0",
	"empsiz": "50 to 99",
	"sqft": "2,500 - 9,999",
	"source": "InfoGroup2014",
	"point_x": "-104.939495",
	"point_y": "39.700906",
	"nbhd_name": "Outside Denver",
	"council_di": "Outside Denver"
}, {
	"the_geom": {
		"type": "Point",
		"coordinates": [-105.11115900006604, 39.610836000184065]
	},
	"store_type": "Supermarket",
	"store_name": "Albertsons",
	"address_id": "0.0",
	"address1": "10081 W Bowles Ave",
	"city": "Littleton",
	"state": "CO",
	"zip": "80127",
	"phone": "(303) 978-9617",
	"sic": "541105",
	"naics_ext": "445110",
	"sales_vol": "25802000",
	"number_emp": "100.0",
	"empsiz": "100 to 249",
	"sqft": "40,000+",
	"source": "InfoGroup2014",
	"point_x": "-105.111159",
	"point_y": "39.610836",
	"nbhd_name": "Outside Denver",
	"council_di": "Outside Denver"
}, {
	"the_geom": {
		"type": "Point",
		"coordinates": [-104.90184700012463, 39.75660000010049]
	},
	"store_type": "Supermarket",
	"store_name": "King Soopers",
	"address_id": "0.0",
	"address1": "2810 Quebec St",
	"city": "Denver",
	"state": "CO",
	"zip": "80207",
	"phone": "(303) 333-3223",
	"sic": "541105",
	"naics_ext": "445110",
	"sales_vol": "25802000",
	"number_emp": "100.0",
	"empsiz": "100 to 249",
	"sqft": "40,000+",
	"source": "InfoGroup2014",
	"point_x": "-104.901847",
	"point_y": "39.7566",
	"nbhd_name": "Stapleton",
	"council_di": "Council District 8"
}, {
	"the_geom": {
		"type": "Point",
		"coordinates": [-105.11161399972013, 39.62552099957054]
	},
	"store_type": "Supermarket",
	"store_name": "Safeway",
	"address_id": "0.0",
	"address1": "5025 S Kipling Pkwy",
	"city": "Littleton",
	"state": "CO",
	"zip": "80127",
	"phone": "(303) 973-6770",
	"sic": "541105",
	"naics_ext": "445110",
	"sales_vol": "17029000",
	"number_emp": "66.0",
	"empsiz": "50 to 99",
	"sqft": "2,500 - 9,999",
	"source": "InfoGroup2014",
	"point_x": "-105.111614",
	"point_y": "39.625521",
	"nbhd_name": "Outside Denver",
	"council_di": "Outside Denver"
}, {
	"the_geom": {
		"type": "Point",
		"coordinates": [-104.92980099974972, 39.65219599954594]
	},
	"store_type": "Supermarket",
	"store_name": "Safeway",
	"address_id": "0.0",
	"address1": "4950 E Hampden Ave",
	"city": "Denver",
	"state": "CO",
	"zip": "80222",
	"phone": "(303) 691-0051",
	"sic": "541105",
	"naics_ext": "445110",
	"sales_vol": "14191000",
	"number_emp": "55.0",
	"empsiz": "50 to 99",
	"sqft": "2,500 - 9,999",
	"source": "InfoGroup2014",
	"point_x": "-104.929801",
	"point_y": "39.652196",
	"nbhd_name": "Southmoor Park",
	"council_di": "Council District 4"
}, {
	"the_geom": {
		"type": "Point",
		"coordinates": [-104.7700289999081, 39.784881999918014]
	},
	"store_type": "Supermarket",
	"store_name": "King Soopers",
	"address_id": "0.0",
	"address1": "18605 Green Valley Ranch",
	"city": "Denver",
	"state": "CO",
	"zip": "80249",
	"phone": "(303) 371-8985",
	"sic": "541105",
	"naics_ext": "445110",
	"sales_vol": "25802000",
	"number_emp": "100.0",
	"empsiz": "100 to 249",
	"sqft": "40,000+",
	"source": "InfoGroup2014",
	"point_x": "-104.770029",
	"point_y": "39.784882",
	"nbhd_name": "Gateway - Green Valley Ranch",
	"council_di": "Council District 11"
}, {
	"the_geom": {
		"type": "Point",
		"coordinates": [-104.91559200109378, 39.73753199977989]
	},
	"store_type": "Supermarket",
	"store_name": "Safeway",
	"address_id": "0.0",
	"address1": "6220 E 14th Ave # 1",
	"city": "Denver",
	"state": "CO",
	"zip": "80220",
	"phone": "(303) 242-3523",
	"sic": "541105",
	"naics_ext": "445110",
	"sales_vol": "18835000",
	"number_emp": "73.0",
	"empsiz": "50 to 99",
	"sqft": "2,500 - 9,999",
	"source": "InfoGroup2014",
	"point_x": "-104.915592",
	"point_y": "39.737532",
	"nbhd_name": "Montclair",
	"council_di": "Council District 5"
}, {
	"the_geom": {
		"type": "Point",
		"coordinates": [-104.94086099995769, 39.6865999996196]
	},
	"store_type": "Supermarket",
	"store_name": "Safeway",
	"address_id": "0.0",
	"address1": "1653 S Colorado Blvd",
	"city": "Denver",
	"state": "CO",
	"zip": "80222",
	"phone": "(303) 691-2962",
	"sic": "541105",
	"naics_ext": "445110",
	"sales_vol": "25286000",
	"number_emp": "98.0",
	"empsiz": "50 to 99",
	"sqft": "2,500 - 9,999",
	"source": "InfoGroup2014",
	"point_x": "-104.940861",
	"point_y": "39.6866",
	"nbhd_name": "Cory - Merrill",
	"council_di": "Council District 6"
}, {
	"the_geom": {
		"type": "Point",
		"coordinates": [-104.9735089996476, 39.7249810001515]
	},
	"store_type": "Supermarket",
	"store_name": "Safeway",
	"address_id": "0.0",
	"address1": "560 Corona St",
	"city": "Denver",
	"state": "CO",
	"zip": "80218",
	"phone": "(303) 777-1231",
	"sic": "541105",
	"naics_ext": "445110",
	"sales_vol": "18061000",
	"number_emp": "70.0",
	"empsiz": "50 to 99",
	"sqft": "2,500 - 9,999",
	"source": "InfoGroup2014",
	"point_x": "-104.973509",
	"point_y": "39.724981",
	"nbhd_name": "Speer",
	"council_di": "Council District 10"
}, {
	"the_geom": {
		"type": "Point",
		"coordinates": [-105.024360999517, 39.62572400030854]
	},
	"store_type": "Supermarket",
	"store_name": "King Soopers",
	"address_id": "0.0",
	"address1": "5050 S Federal Blvd # A",
	"city": "Englewood",
	"state": "CO",
	"zip": "80110",
	"phone": "(303) 798-2521",
	"sic": "541105",
	"naics_ext": "445110",
	"sales_vol": "30962000",
	"number_emp": "120.0",
	"empsiz": "100 to 249",
	"sqft": "40,000+",
	"source": "InfoGroup2014",
	"point_x": "-105.024361",
	"point_y": "39.625724",
	"nbhd_name": "Outside Denver",
	"council_di": "Outside Denver"
}, {
	"the_geom": {
		"type": "Point",
		"coordinates": [-104.97584400013638, 39.7332660002711]
	},
	"store_type": "Supermarket",
	"store_name": "Whole Foods",
	"address_id": "0.0",
	"address1": "900 E 11th Ave",
	"city": "Denver",
	"state": "CO",
	"zip": "80218",
	"phone": "(303) 832-7701",
	"sic": "541105",
	"naics_ext": "445110",
	"sales_vol": "17545000",
	"number_emp": "68.0",
	"empsiz": "50 to 99",
	"sqft": "2,500 - 9,999",
	"source": "InfoGroup2014",
	"point_x": "-104.975844",
	"point_y": "39.733266",
	"nbhd_name": "Capitol Hill",
	"council_di": "Council District 10"
}, {
	"the_geom": {
		"type": "Point",
		"coordinates": [-104.9978340000797, 39.737656000230686]
	},
	"store_type": "Supermarket",
	"store_name": "King Soopers",
	"address_id": "0.0",
	"address1": "1331 Speer Blvd",
	"city": "Denver",
	"state": "CO",
	"zip": "80204",
	"phone": "(303) 571-1943",
	"sic": "541105",
	"naics_ext": "445110",
	"sales_vol": "25802000",
	"number_emp": "100.0",
	"empsiz": "100 to 249",
	"sqft": "40,000+",
	"source": "InfoGroup2014",
	"point_x": "-104.997834",
	"point_y": "39.737656",
	"nbhd_name": "Lincoln Park",
	"council_di": "Council District 3"
}, {
	"the_geom": {
		"type": "Point",
		"coordinates": [-105.05450020008631, 39.77025029972532]
	},
	"store_type": "Supermarket",
	"store_name": "King Soopers",
	"address_id": "0.0",
	"address1": "3817 Sheridan Blvd",
	"city": "Wheat Ridge",
	"state": "CO",
	"zip": "80212",
	"phone": "(303) 425-7455",
	"sic": "541105",
	"naics_ext": "445110",
	"sales_vol": "25802000",
	"number_emp": "100.0",
	"empsiz": "100 to 249",
	"sqft": "40,000+",
	"source": "InfoGroup2014",
	"point_x": "-105.0545002",
	"point_y": "39.7702503",
	"nbhd_name": "Outside Denver",
	"council_di": "Outside Denver"
}, {
	"the_geom": {
		"type": "Point",
		"coordinates": [-104.94084299989225, 39.70150399980224]
	},
	"store_type": "Supermarket",
	"store_name": "King Soopers",
	"address_id": "0.0",
	"address1": "825 S Colorado Blvd",
	"city": "Denver",
	"state": "CO",
	"zip": "80246",
	"phone": "(303) 722-1096",
	"sic": "541105",
	"naics_ext": "445110",
	"sales_vol": "51604000",
	"number_emp": "200.0",
	"empsiz": "100 to 249",
	"sqft": "40,000+",
	"source": "InfoGroup2014",
	"point_x": "-104.940843",
	"point_y": "39.701504",
	"nbhd_name": "Belcaro",
	"council_di": "Council District 6"
}, {
	"the_geom": {
		"type": "Point",
		"coordinates": [-104.8679299998214, 39.68645400008887]
	},
	"store_type": "Supermarket",
	"store_name": "Safeway",
	"address_id": "0.0",
	"address1": "1677 S Havana St",
	"city": "Aurora",
	"state": "CO",
	"zip": "80012",
	"phone": "(303) 481-2279",
	"sic": "541105",
	"naics_ext": "445110",
	"sales_vol": "25802000",
	"number_emp": "100.0",
	"empsiz": "100 to 249",
	"sqft": "40,000+",
	"source": "InfoGroup2014",
	"point_x": "-104.86793",
	"point_y": "39.686454",
	"nbhd_name": "Outside Denver",
	"council_di": "Outside Denver"
}, {
	"the_geom": {
		"type": "Point",
		"coordinates": [-105.05441699978383, 39.6553329999503]
	},
	"store_type": "Supermarket",
	"store_name": "Walmart",
	"address_id": "0.0",
	"address1": "3125 S Sheridan Blvd",
	"city": "Denver",
	"state": "CO",
	"zip": "80227",
	"phone": "(303) 985-0217",
	"sic": "531102",
	"naics_ext": "452111",
	"sales_vol": "50638000",
	"number_emp": "230.0",
	"empsiz": "100 to 249",
	"sqft": "40,000+",
	"source": "InfoGroup2014",
	"point_x": "-105.054417",
	"point_y": "39.655333",
	"nbhd_name": "Bear Valley",
	"council_di": "Council District 2"
}, {
	"the_geom": {
		"type": "Point",
		"coordinates": [-104.90059099855853, 39.652928000207055]
	},
	"store_type": "Supermarket",
	"store_name": "Whole Foods",
	"address_id": "0.0",
	"address1": "7400 E Hampden Ave # D-1",
	"city": "Denver",
	"state": "CO",
	"zip": "80231",
	"phone": "(303) 488-2000",
	"sic": "541105",
	"naics_ext": "445110",
	"sales_vol": "65022000",
	"number_emp": "252.0",
	"empsiz": "250 to 499",
	"sqft": "40,000+",
	"source": "InfoGroup2014",
	"point_x": "-104.900591",
	"point_y": "39.652928",
	"nbhd_name": "Hampden South",
	"council_di": "Council District 4"
}, {
	"the_geom": {
		"type": "Point",
		"coordinates": [-104.8673129995783, 39.69530100025162]
	},
	"store_type": "Supermarket",
	"store_name": "King Soopers",
	"address_id": "0.0",
	"address1": "1155 S Havana St # 1",
	"city": "Aurora",
	"state": "CO",
	"zip": "80012",
	"phone": "(303) 755-1244",
	"sic": "541105",
	"naics_ext": "445110",
	"sales_vol": "51604000",
	"number_emp": "200.0",
	"empsiz": "100 to 249",
	"sqft": "40,000+",
	"source": "InfoGroup2014",
	"point_x": "-104.867313",
	"point_y": "39.695301",
	"nbhd_name": "Outside Denver",
	"council_di": "Outside Denver"
}, {
	"the_geom": {
		"type": "Point",
		"coordinates": [-104.97982799961994, 39.69570699972758]
	},
	"store_type": "Supermarket",
	"store_name": "Whole Foods",
	"address_id": "0.0",
	"address1": "1111 S Washington St",
	"city": "Denver",
	"state": "CO",
	"zip": "80210",
	"phone": "(303) 733-6201",
	"sic": "541105",
	"naics_ext": "445110",
	"sales_vol": "11611000",
	"number_emp": "45.0",
	"empsiz": "20 to 49",
	"sqft": "2,500 - 9,999",
	"source": "InfoGroup2014",
	"point_x": "-104.979828",
	"point_y": "39.695707",
	"nbhd_name": "Washington Park West",
	"council_di": "Council District 7"
}, {
	"the_geom": {
		"type": "Point",
		"coordinates": [-104.93730500003011, 39.66653799968543]
	},
	"store_type": "Supermarket",
	"store_name": "King Soopers",
	"address_id": "0.0",
	"address1": "2750 S Colorado Blvd",
	"city": "Denver",
	"state": "CO",
	"zip": "80222",
	"phone": "(303) 512-0441",
	"sic": "541105",
	"naics_ext": "445110",
	"sales_vol": "39477000",
	"number_emp": "153.0",
	"empsiz": "100 to 249",
	"sqft": "40,000+",
	"source": "InfoGroup2014",
	"point_x": "-104.937305",
	"point_y": "39.666538",
	"nbhd_name": "University Hills",
	"council_di": "Council District 4"
}, {
	"the_geom": {
		"type": "Point",
		"coordinates": [-104.98886200046252, 39.655678000204546]
	},
	"store_type": "Supermarket",
	"store_name": "King Soopers",
	"address_id": "0.0",
	"address1": "101 Englewood Pkwy # A",
	"city": "Englewood",
	"state": "CO",
	"zip": "80110",
	"phone": "(303) 761-0013",
	"sic": "541105",
	"naics_ext": "445110",
	"sales_vol": "34833000",
	"number_emp": "135.0",
	"empsiz": "100 to 249",
	"sqft": "40,000+",
	"source": "InfoGroup2014",
	"point_x": "-104.988862",
	"point_y": "39.655678",
	"nbhd_name": "Outside Denver",
	"council_di": "Outside Denver"
}, {
	"the_geom": {
		"type": "Point",
		"coordinates": [-104.84593999987806, 39.69602499988366]
	},
	"store_type": "Supermarket",
	"store_name": "Safeway",
	"address_id": "0.0",
	"address1": "12200 E Mississippi Ave",
	"city": "Aurora",
	"state": "CO",
	"zip": "80012",
	"phone": "(303) 751-6603",
	"sic": "541105",
	"naics_ext": "445110",
	"sales_vol": "22964000",
	"number_emp": "89.0",
	"empsiz": "50 to 99",
	"sqft": "2,500 - 9,999",
	"source": "InfoGroup2014",
	"point_x": "-104.84594",
	"point_y": "39.696025",
	"nbhd_name": "Outside Denver",
	"council_di": "Outside Denver"
}, {
	"the_geom": {
		"type": "Point",
		"coordinates": [-104.94042700037994, 39.72902299984594]
	},
	"store_type": "Supermarket",
	"store_name": "Trader Joe's",
	"address_id": "0.0",
	"address1": "790 Colorado Blvd",
	"city": "Denver",
	"state": "CO",
	"zip": "80206",
	"phone": "(303) 321-3245",
	"sic": "541105",
	"naics_ext": "445110",
	"sales_vol": "15481000",
	"number_emp": "60.0",
	"empsiz": "50 to 99",
	"sqft": "2,500 - 9,999",
	"source": "InfoGroup2014",
	"point_x": "-104.940427",
	"point_y": "39.729023",
	"nbhd_name": "Hale",
	"council_di": "Council District 5"
}, {
	"the_geom": {
		"type": "Point",
		"coordinates": [-104.86255700128817, 39.74024499964287]
	},
	"store_type": "Supermarket",
	"store_name": "Avanza",
	"address_id": "0.0",
	"address1": "10777 E Colfax Ave",
	"city": "Aurora",
	"state": "CO",
	"zip": "80010",
	"phone": "(303) 537-9808",
	"sic": "541105",
	"naics_ext": "445110",
	"sales_vol": "0.0",
	"number_emp": "0.0",
	"sqft": "2,500 - 9,999",
	"source": "OED",
	"point_x": "-104.862557",
	"point_y": "39.740245",
	"nbhd_name": "Outside Denver",
	"council_di": "Outside Denver"
}, {
	"the_geom": {
		"type": "Point",
		"coordinates": [-105.0138500003049, 39.710073999957956]
	},
	"store_type": "Supermarket",
	"store_name": "Pacific Ocean Intl Supermarket",
	"address_id": "0.0",
	"address1": "2200 W Alameda Ave # 2b",
	"city": "Denver",
	"state": "CO",
	"zip": "80223",
	"phone": "(303) 936-4845",
	"sic": "541105",
	"naics_ext": "445110",
	"sales_vol": "774000",
	"number_emp": "3.0",
	"empsiz": "1 to 4",
	"sqft": "0 - 2,499",
	"source": "InfoGroup2014",
	"point_x": "-105.01385",
	"point_y": "39.710074",
	"nbhd_name": "Athmar Park",
	"council_di": "Council District 7"
}, {
	"the_geom": {
		"type": "Point",
		"coordinates": [-104.97377699962186, 39.73154099999999]
	},
	"store_type": "Supermarket",
	"store_name": "King Soopers",
	"address_id": "0.0",
	"address1": "1155 E 9th Ave # A",
	"city": "Denver",
	"state": "CO",
	"zip": "80218",
	"phone": "(303) 832-5262",
	"sic": "541105",
	"naics_ext": "445110",
	"sales_vol": "46444000",
	"number_emp": "180.0",
	"empsiz": "100 to 249",
	"sqft": "40,000+",
	"source": "InfoGroup2014",
	"point_x": "-104.973777",
	"point_y": "39.731541",
	"nbhd_name": "Capitol Hill",
	"council_di": "Council District 10"
}, {
	"the_geom": {
		"type": "Point",
		"coordinates": [-104.90258699981484, 39.72088600026433]
	},
	"store_type": "Supermarket",
	"store_name": "Albertsons",
	"address_id": "0.0",
	"address1": "200 Quebec St # 400",
	"city": "Denver",
	"state": "CO",
	"zip": "80230",
	"phone": "(303) 340-4455",
	"sic": "541105",
	"naics_ext": "445110",
	"sales_vol": "25802000",
	"number_emp": "100.0",
	"empsiz": "100 to 249",
	"sqft": "40,000+",
	"source": "InfoGroup2014",
	"point_x": "-104.902587",
	"point_y": "39.720886",
	"nbhd_name": "Lowry Field",
	"council_di": "Council District 5"
}, {
	"the_geom": {
		"type": "Point",
		"coordinates": [-104.93289099998327, 39.70851600029397]
	},
	"store_type": "Supermarket",
	"store_name": "King Soopers",
	"address_id": "0.0",
	"address1": "4600 Leetsdale Dr",
	"city": "Glendale",
	"state": "CO",
	"zip": "80246",
	"phone": "(303) 320-3100",
	"sic": "541105",
	"naics_ext": "445110",
	"sales_vol": "25802000",
	"number_emp": "100.0",
	"empsiz": "100 to 249",
	"sqft": "40,000+",
	"source": "InfoGroup2014",
	"point_x": "-104.932891",
	"point_y": "39.708516",
	"nbhd_name": "Outside Denver",
	"council_di": "Outside Denver"
}, {
	"the_geom": {
		"type": "Point",
		"coordinates": [-104.91620900033683, 39.738511000338974]
	},
	"store_type": "Supermarket",
	"store_name": "King Soopers",
	"address_id": "0.0",
	"address1": "1355 Krameria St",
	"city": "Denver",
	"state": "CO",
	"zip": "80220",
	"phone": "(303) 388-2249",
	"sic": "541105",
	"naics_ext": "445110",
	"sales_vol": "70182000",
	"number_emp": "272.0",
	"empsiz": "250 to 499",
	"sqft": "40,000+",
	"source": "InfoGroup2014",
	"point_x": "-104.916209",
	"point_y": "39.738511",
	"nbhd_name": "Montclair",
	"council_di": "Council District 5"
}, {
	"the_geom": {
		"type": "Point",
		"coordinates": [-105.04830299955677, 39.655654000117295]
	},
	"store_type": "Supermarket",
	"store_name": "King Soopers",
	"address_id": "0.0",
	"address1": "3100 S Sheridan Blvd # 200",
	"city": "Denver",
	"state": "CO",
	"zip": "80227",
	"phone": "(303) 937-4400",
	"sic": "541105",
	"naics_ext": "445110",
	"sales_vol": "61925000",
	"number_emp": "240.0",
	"empsiz": "100 to 249",
	"sqft": "40,000+",
	"source": "InfoGroup2014",
	"point_x": "-105.048303",
	"point_y": "39.655654",
	"nbhd_name": "Harvey Park South",
	"council_di": "Council District 2"
}, {
	"the_geom": {
		"type": "Point",
		"coordinates": [-105.05332099879939, 39.719193000109556]
	},
	"store_type": "Supermarket",
	"store_name": "Won's Market",
	"address_id": "0.0",
	"address1": "105 Sheridan Blvd",
	"city": "Lakewood",
	"state": "CO",
	"zip": "80226",
	"phone": "(303) 238-6764",
	"sic": "541105",
	"naics_ext": "445110",
	"sales_vol": "258000",
	"number_emp": "1.0",
	"empsiz": "1 to 4",
	"sqft": "0 - 2,499",
	"source": "InfoGroup2014",
	"point_x": "-105.053321",
	"point_y": "39.719193",
	"nbhd_name": "Outside Denver",
	"council_di": "Outside Denver"
}, {
	"the_geom": {
		"type": "Point",
		"coordinates": [-104.99895600015867, 39.75723500040897]
	},
	"store_type": "Supermarket",
	"store_name": "King Soopers",
	"address_id": "0.0",
	"address1": "1950 Chestnut St",
	"city": "Denver",
	"state": "CO",
	"sales_vol": "0.0",
	"number_emp": "0.0",
	"source": "DEH2015",
	"point_x": "-104.998956",
	"point_y": "39.757235",
	"nbhd_name": "Union Station",
	"council_di": "Council District 9"
}]